{"version": 0.6, "generator": "Overpass API 0.7.62.1 084b4234", "osm3s": {"timestamp_osm_base": "2024-08-14T09:52:39Z", "copyright": "The data included in this document is from www.openstreetmap.org. The data is made available under ODbL."}, "elements": [{"type": "node", "id": 3687647515, "lat": 29.7285658, "lon": -95.327164}, {"type": "node", "id": 3687647542, "lat": 29.728596, "lon": -95.3276736}, {"type": "node", "id": 3687647627, "lat": 29.7289267, "lon": -95.3273862}, {"type": "node", "id": 10186581368, "lat": 29.7281768, "lon": -95.326962}, {"type": "node", "id": 10186581369, "lat": 29.7281514, "lon": -95.326977}, {"type": "way", "id": 364717470, "nodes": [3687647542, 3687647627, 3687647515, 10186581368, 10186581369, 3687647542], "tags": {"addr:city": "Houston", "addr:housenumber": "1500", "addr:postcode": "77023", "addr:state": "TX", "addr:street": "Elliott Street", "leisure": "park", "name": "Broadmoor-Kretschmar Park", "operator": "Houston Parks and Recreation Department", "operator:short": "HPARD", "operator:type": "government", "operator:wikidata": "Q115018877", "owner": "City of Houston", "owner:wikidata": "Q16555", "start_date": "1936", "start_year": "1936", "wikidata": "Q115221902"}}]}